     3.03           OBSERVATION DATA    M                   RINEX VERSION / TYPE
GnssLogger          Xiaomi 14           20240629 000446 UTC PGM / RUN BY / DATE
Google GnssLogger                                           MARKER NAME
Unknown                                                     MARKER NUMBER
Unknown             Unknown                                 OBSERVER / AGENCY
Unknown             GnssLogger          v3.0.6.4            REC # / TYPE / VERS
Unknown             Unknown                                 ANT # / TYPE
        0.0000        0.0000        0.0000                  ANTENNA: DELTA H/E/N
G    3 C1C D1C S1C                                          SYS / # / OBS TYPES
C    4 C2I D2I S2I L2I                                      SYS / # / OBS TYPES
  2024    06    29    00    04   46.0000000     GPS         TIME OF FIRST OBS
                                                            GLONASS SLOT / FRQ #
C L2I                                                       SYS / PHASE SHIFT

 C1C    0.000 C1P    0.000 C2C    0.000 C2P    0.000        GLONASS COD/PHS/BIS
                                                            END OF HEADER
> 2024 06 29 00 04 46.1750000  0 6                      
G22  21384906.83722      3136.75922        14.60022
G13  23713042.00322       526.40022        17.17122
G17  21226615.82023      1217.48523        17.83023
C38  38737520.27324      4481.00324        26.20024
G30  22148422.46621      -372.61521        11.00021
G06  21162265.06923      5123.58723        19.07723
> 2024 06 29 00 04 46.4360000  0 5                      
G22  21384323.44122      3111.72322        14.26022
G13  23712943.07122       503.94322        17.17122
C38  38736654.77224      4508.90024        26.60024
G30  22148495.61621      -396.20121        11.00021
G06  21161281.45023      5099.46923        19.89923
> 2024 06 29 00 04 47.4369999  0 5                      
G22  21383702.27122      3098.90322        14.43422
G13  23712818.65722       489.10422        17.17122
C38  38735760.49124      4485.64724        26.60024
G30  22148542.08321      -410.01021        11.00021
G06  21160282.24123      5084.56323        19.89923
> 2024 06 29 00 04 48.4369999  0 5                      
G22  21383114.07822      3086.72522        14.35722
G13  23712732.31722       477.27422        17.17122
C38  38734903.68424      4457.34624        26.60024
G30  22148621.52821      -423.83221        11.00021
G06  21159313.91223      5075.96323        19.83823
> 2024 06 29 00 04 49.4379998  0 4                      
G22  21382498.90422      3067.28822        14.32922
G13  23712613.00022       460.13422        17.17122
C38  38734020.19624      4458.36324        26.20024
G06  21158322.79823      5051.77823        19.81523
> 2024 06 29 00 04 50.4379998  0 5                      
G22  21381916.70722      3049.76222        14.30222
G17  21225425.34423      1127.42723        17.97923
G13  23712511.37022       442.74322        17.12822
C38  38733188.87124      4443.62724        26.12524
G06  21157368.55923      5034.42123        19.79023
> 2024 06 29 00 04 51.4350000  0 5                      
G22  21381397.46722      3033.03522        14.27622
G17  21225288.93823      1111.72123        20.05923
G13  23712488.58622       425.05922        17.08722
C38  38732393.22224      4422.13324        26.07324
G06  21156476.97623      5016.00923        19.71023
> 2024 06 29 00 04 52.4330001  0 4                      
G17  21225091.97523      1099.80223        21.00323
G13  23712438.82022       405.92322        17.04822
C38  38731574.78924      4411.05624        26.00424
G06  21155553.61523      5004.30723        19.68123
> 2024 06 29 00 04 53.4289999  0 4                      
G17  21224823.96023      1098.38923        21.00323
G13  23712306.61222       414.12922        12.50022
C38  38730667.91724      4410.10224        25.96324
G06  21154543.91423      5004.28323        19.68323
> 2024 06 29 00 04 54.4280000  0 5                      
G22  21379671.56122      3019.62422        13.90022
G17  21224646.78323      1097.71723        20.96823
G13  23712258.64522       406.71422        12.50022
C38  38729850.08324      4406.03524        25.99424
G06  21153626.24923      4996.32223        19.72223
> 2024 06 29 00 04 55.4270000  0 5                      
G22  21379097.45922      3007.82322        13.90022
G17  21224437.82723      1080.43123        20.94523
G13  23712181.59822       400.08122        12.50022
C38  38729005.26824      4393.89724        25.98424
G06  21152671.71023      4980.18323        19.78623
> 2024 06 29 00 04 56.4270000  0 6                      
G22  21378525.45522      3001.22622        13.90022
G17  21224234.56823      1079.20723        20.92623
G19  20750611.05122      2719.44322        16.19722
G13  23712102.15322       380.87622        13.00022
C38  38728162.25124      4385.69824        25.99924
G06  21151724.06623      4974.67923        19.83223
> 2024 06 29 00 04 57.4280000  0 6                      
G22  21377955.25022      2994.34622        13.40022
G17  21224032.50823      1065.04723        20.88423
G19  20750094.50822      2712.33422        16.19722
G13  23712030.20322       378.66322        13.00022
C38  38727321.03424      4375.97324        25.95924
G06  21150777.32223      4972.52023        19.86623
> 2024 06 29 00 04 58.4280000  0 6                      
G22  21377387.14322      2979.13022        13.40022
G17  21223829.54923      1057.83723        20.87323
G19  20749579.16522      2702.47722        16.19722
G13  23711952.25722       361.26422        14.90022
C38  38726481.61524      4369.36324        25.90124
G06  21149831.77623      4963.95723        19.79723
> 2024 06 29 00 04 59.4289999  0 6                      
G22  21376786.65923      2963.23523        17.50723
G17  21223601.70623      1038.89823        20.81423
G19  20749034.74222      2704.86222        16.18022
G13  23711851.52722       379.30722        14.90022
C38  38725613.41624      4351.55924        25.88024
G06  21148856.25123      4946.11723        19.78023
> 2024 06 29 00 05 00.4300001  0 6                      
G22  21376281.80823      2958.92823        17.50723
G17  21223465.90023      1044.50023        20.80423
G19  20748580.85622      2698.25322        16.16422
G13  23711836.53722       398.97422        14.90022
C38  38724836.95324      4353.60324        25.93124
G06  21147974.86223      4939.52823        19.76423
> 2024 06 29 00 05 01.4300001  0 5                      
G22  21375722.99523      2926.76723        17.50723
G17  21223268.93723      1025.67523        20.79423
G19  20748072.40822      2655.86622        13.40022
C38  38724002.03124      4343.06124        25.94924
G06  21147036.21123      4920.91323        19.78623
> 2024 06 29 00 05 02.4300001  0 4                      
G17  21223069.87423      1026.42223        20.76723
G19  20747566.95822      2655.86722        13.40022
C38  38723169.50824      4333.23424        25.94624   -195751.88224
G06  21146099.36023      4922.09123        19.80723
> 2024 06 29 00 05 03.4300001  0 4                      
G17  21222876.50823      1011.81123        20.71423
G19  20747061.80822      2654.55022        13.40022
C38  38722337.58424      4326.91224        25.83824                
G06  21145164.00823      4911.10723        19.76223
> 2024 06 29 00 05 04.4500001  0 4                      
G17  21222687.33923      1004.47023        20.69623
G19  20746566.25122      2643.16722        15.97722
C38  38721507.15824      4315.79824        25.75624                
G06  21144231.65323      4882.63923        19.71923
> 2024 06 29 00 05 06.0009998  0 4                      
G17  21222306.00323       996.82023        20.72523
G19  20745695.95422      2642.11622        15.97722
C38  38720133.50923      4308.88323        21.10023                
G06  21142707.20821      4853.02721        12.20021
> 2024 06 29 00 05 07.0009998  0 4                      
G17  21222115.93523      1000.43823        20.72423
G19  20745194.70123      2641.75523        18.57223
C38  38719306.08223      4309.80723        21.12023                
G06  21141782.34921      4853.01921        12.20021
> 2024 06 29 00 05 08.0009998  0 3                      
G17  21221924.06823      1012.66423        20.78323
G19  20744691.34923      2655.10723        18.57223
C38  38718478.05523      4326.49923        21.15423                
> 2024 06 29 00 05 09.0009998  0 3                      
G17  21221731.00123      1026.58323        20.75723
G19  20744184.70023      2679.93823        18.55723
C38  38717647.03123      4334.00223        21.10623                
> 2024 06 29 00 05 10.0009998  0 4                      
G17  21221535.23723      1047.67323        20.70823
G19  20743673.85323      2703.14423        18.54323
C38  38716812.10923      4360.51423        21.09023                
G30  22150829.50022      -542.12522        16.32422
> 2024 06 29 00 05 11.0009998  0 5                      
G17  21221334.37623      1068.67023        20.66223
G19  20743158.81023      2713.77923        18.52923
C27  22132901.01122       925.55122        13.30022                
C38  38715972.99023      4378.75423        21.07023                
G30  22150931.72922      -525.39522        16.32422
> 2024 06 29 00 05 12.0009998  0 5                      
G17  21221130.21723      1078.47923        20.68823
G19  20742647.36423      2723.41723        18.50523
C27  22132722.93522       935.17722        13.30022                
C38  38715132.67123      4383.98423        21.00623                
G30  22151019.26822      -506.35822        16.00422
